[
	{
		"id": 1,
		"name": "Sandra Perkins",
		"location": "Minneapolis",
		"phone": "(928)-332-2721",
		"url": "https://uinames.com/api/photos/female/4.jpg"
	},
	{
		"id": 2,
		"name": "Patrick Scott",
		"location": "Edina",
		"phone": "(604)-839-8888",
		"url": "https://uinames.com/api/photos/male/4.jpg"
	},
	{
		"id": 3,
		"name": "Rose James",
		"location": "St. Paul",
		"phone": "(429)-786-8862",
		"url": "https://uinames.com/api/photos/female/5.jpg"
	},
	{
		"id": 4,
		"name": "Jeremy Olson",
		"location": "Richfield",
		"phone": "(298)-388-5792",
		"url": "https://uinames.com/api/photos/male/10.jpg"
	},
	{
		"id": 5,
		"name": "Barbara Hunter",
		"location": "Shoreview",
		"phone": "(747)-849-2228",
		"url": "https://uinames.com/api/photos/female/23.jpg"
	},
	{
		"id": 6,
		"name": "Jeffrey Bennett",
		"location": "Woodbury",
		"phone": "(346)-832-8541",
		"url": "https://uinames.com/api/photos/male/19.jpg"
	},
	{
		"id": 7,
		"name": "Pamela Lynch",
		"location": "Minneapolis",
		"phone": "(849)-234-0291",
		"url": "https://uinames.com/api/photos/female/19.jpg"
	},
	{
		"id": 8,
		"name": "Sandra Castillo",
		"location": "St. Paul",
		"phone": "(832)-999-8981",
		"url": "https://uinames.com/api/photos/female/24.jpg"
	},
	{
		"id": 9,
		"name": "Peter Chen",
		"location": "Minneapolis",
		"phone": "(126)-773-1613",
		"url": "https://uinames.com/api/photos/male/13.jpg"
	},
	{
		"id": 10,
		"name": "Bruce Martinez",
		"location": "Maplewood",
		"phone": "(927)-483-4792",
		"url": "https://uinames.com/api/photos/male/14.jpg"
	}
]